City,Cloudiness,Country,Date,Humidity,Lat,Lng,Max Temp,Wind Speed
Carnarvon,100,AU,1659270962,48,-24.8667,113.6333,70.39,8.32
Rikitea,100,PF,1659270963,74,-23.1203,-134.9692,72.37,19.19
Upernavik,70,GL,1659270964,69,72.7868,-56.1549,47.97,9.06
Hilo,100,US,1659270916,83,19.7297,-155.09,73.27,4.61
Busselton,100,AU,1659270965,74,-33.65,115.3333,57.49,14.88
College,100,US,1659270965,87,64.8569,-147.8028,58.59,3.44
Cape Town,20,ZA,1659270684,51,-33.9258,18.4232,62.11,12.66
Tsabong,72,BW,1659270966,18,-26.0217,22.401,67.51,7.76
Ribeira Grande,20,PT,1659270966,73,38.5167,-28.7,77.4,4.61
Arraial do Cabo,0,BR,1659270967,68,-22.9661,-42.0278,67.96,8.05
Iqaluit,75,CA,1659270967,87,63.7506,-68.5145,44.33,9.22
Jieshi,13,CN,1659270968,77,22.8134,115.8257,84.47,8.84
Almansa,0,ES,1659270968,36,38.8692,-1.0971,89.51,4.38
Natal,75,BR,1659270969,89,-5.795,-35.2094,80.82,5.75
Mataura,87,NZ,1659270969,98,-46.1927,168.8643,48.47,3.94
Buala,6,SB,1659270970,81,-8.145,159.5921,80.38,8.99
Avarua,40,CK,1659270970,69,-21.2078,-159.775,75.25,10.36
Rio Verde de Mato Grosso,0,BR,1659270971,38,-18.9181,-54.8442,79.05,6.49
Lorengau,21,PG,1659270971,77,-2.0226,147.2712,82.27,9.08
Albanel,25,CA,1659270972,78,48.8832,-72.4487,69.78,4.61
Albany,0,US,1659270703,74,42.6001,-73.9662,70.57,1.77
Tura,100,IN,1659270972,95,25.5198,90.2201,74.17,3.6
Yellowknife,20,CA,1659270973,93,62.456,-114.3525,50.56,4.61
Olafsvik,94,IS,1659270973,73,64.8945,-23.7142,49.28,10.6
Saint George,0,US,1659270973,74,37.1041,-113.5841,75.63,1.99
Moerai,28,PF,1659270974,70,-22.4333,-151.3333,72.48,22.41
Port Alfred,51,ZA,1659270974,63,-33.5906,26.891,61.18,7.0
Tarabuco,5,BO,1659270975,43,-19.1667,-64.9167,54.86,3.6
Vaini,20,TO,1659270975,94,-21.2,-175.2,75.36,6.91
San Patricio,0,US,1659270976,78,28.017,-97.5169,86.85,5.03
Longyearbyen,0,SJ,1659270976,71,78.2186,15.6401,51.64,4.61
Bandiagara,96,ML,1659270977,34,14.3501,-3.6104,94.19,8.21
Hermanus,9,ZA,1659270977,49,-34.4187,19.2345,58.8,5.64
Constitución,1,CL,1659270845,83,-35.3333,-72.4167,49.57,2.59
Shiroishi,100,JP,1659270978,83,38.0033,140.6183,81.72,3.98
Mahébourg,40,MU,1659270978,68,-20.4081,57.7,74.25,21.85
Hofn,40,IS,1659270979,41,64.2539,-15.2082,59.02,13.8
Ulladulla,100,AU,1659270979,79,-35.35,150.4667,54.0,8.88
Saint Paul Harbor,0,US,1659270979,87,57.79,-152.4072,53.11,5.75
Nemuro,100,JP,1659270980,90,43.3236,145.575,63.34,16.75
Vallenar,0,CL,1659270981,68,-28.5708,-70.7581,57.38,0.45
Bluff,53,NZ,1659270981,75,-46.6,168.3333,48.79,13.27
San Luis,0,AR,1659270982,32,-33.295,-66.3356,56.05,3.62
Lata,0,PT,1659270982,17,40.1629,-8.3327,77.81,7.02
Harper,97,LR,1659270983,76,4.375,-7.7169,77.76,8.63
Port Elizabeth,40,ZA,1659270983,67,-33.918,25.5701,61.09,20.71
Ostrovnoy,100,RU,1659270983,60,68.0531,39.5131,65.86,13.89
Hobart,100,AU,1659270984,70,-42.8794,147.3294,53.26,17.27
Deep River,6,CA,1659270985,68,46.1001,-77.4995,65.95,4.14
Castro,0,BR,1659270985,54,-24.7911,-50.0119,57.51,4.07
Kaitangata,53,NZ,1659270986,94,-46.2817,169.8464,40.77,8.23
Teya,75,RU,1659270986,74,60.3778,92.6267,71.49,3.18
Cayhagan,100,PH,1659270987,83,9.6697,122.4256,79.66,6.6
Asău,100,RO,1659270987,85,46.4333,26.4,67.28,3.44
Qaanaaq,1,GL,1659270988,58,77.484,-69.3632,43.38,6.98
Nome,0,US,1659270989,87,64.5011,-165.4064,46.47,3.44
Bria,99,CF,1659270989,95,6.5423,21.9863,72.05,5.64
Chara,23,RU,1659270737,65,56.9064,118.2631,64.49,5.19
George Town,20,MY,1659270395,76,5.4112,100.3354,85.95,4.61
Amboasary,5,MG,1659270990,57,-25.0333,46.3833,77.0,8.9
Kiryat Gat,16,IL,1659270901,31,31.61,34.7642,92.39,12.55
Jamestown,0,US,1659270814,65,42.097,-79.2353,66.72,1.99
Kloulklubed,100,PW,1659270991,74,7.0419,134.2556,75.7,11.23
Deputatsky,100,RU,1659270991,78,69.3,139.9,60.26,3.04
Butaritari,59,KI,1659270992,70,3.0707,172.7902,81.54,16.98
Lebu,8,CL,1659270992,84,-37.6167,-73.65,46.06,1.9
Atuona,27,PF,1659270926,81,-9.8,-139.0333,75.83,11.92
Isugod,100,PH,1659270993,86,9.3408,118.1196,79.56,3.91
Sabang,8,ID,1659270993,75,5.8933,95.3214,82.63,18.01
Port Hawkesbury,75,CA,1659270994,85,45.6169,-61.3485,71.89,11.01
Pacific Grove,0,US,1659270994,92,36.6177,-121.9166,60.91,4.0
Kédougou,75,SN,1659270994,74,12.5579,-12.1743,84.78,4.61
Havelock,100,US,1659270995,94,34.8791,-76.9013,82.38,1.77
Vardø,28,NO,1659270996,93,70.3705,31.1107,54.45,7.52
Punta Arenas,0,CL,1659270980,81,-53.15,-70.9167,39.31,10.36
Mar del Plata,100,AR,1659270996,88,-38.0023,-57.5575,54.09,5.99
Krasne,100,UA,1659270997,90,49.9145,24.6134,65.91,7.29
São Filipe,100,CV,1659270997,77,14.8961,-24.4956,77.34,7.52
Germenchuk,16,RU,1659270998,24,43.1857,45.921,92.89,14.16
Hambantota,75,LK,1659270999,94,6.1241,81.1185,80.94,6.91
Sarangani,100,PH,1659270999,75,5.4033,125.4636,82.27,11.97
Koróni,0,GR,1659270999,60,36.8,21.95,91.08,10.18
Leh,69,IN,1659270871,36,34.1667,77.5833,67.55,8.59
Tupik,0,RU,1659271000,90,54.4253,119.9327,60.51,4.38
Kapaa,0,US,1659271000,81,22.0752,-159.319,79.12,14.97
Tigil',28,RU,1659271001,85,57.8,158.6667,47.91,5.28
Crewe,70,GB,1659270849,72,53.0979,-2.4416,71.96,8.99
Sinegorsk,22,RU,1659271001,98,47.1667,142.5,53.94,3.33
Marrakesh,20,MA,1659271002,11,31.6315,-8.0083,113.07,6.91
Richards Bay,100,ZA,1659271002,76,-28.783,32.0377,64.56,14.47
Nova Gradiška,68,HR,1659271003,28,45.255,17.3831,84.09,10.83
Faanui,0,PF,1659271004,67,-16.4833,-151.75,79.29,23.35
Quilmaná,44,PE,1659271004,72,-12.95,-76.3833,63.5,4.65
Pisco,12,PE,1659271005,94,-13.7,-76.2167,55.02,4.61
Dikson,100,RU,1659271005,94,73.5069,80.5464,41.76,9.33
Porto-Novo,98,BJ,1659271005,69,6.4965,2.6036,82.22,14.29
Ahipara,5,NZ,1659271006,66,-35.1667,173.1667,52.29,10.18
Thompson,20,CA,1659270773,87,55.7435,-97.8558,44.76,0.0
Mossamedes,100,AO,1659271007,77,-15.1961,12.1522,65.03,11.5
Tatarskaya Pishlya,0,RU,1659271007,45,54.0608,44.8998,73.92,7.54
Matsuura,100,JP,1659271008,72,33.3271,129.721,86.92,12.08
Bethel,0,US,1659271008,73,41.3712,-73.414,74.52,0.0
Otjimbingwe,20,NA,1659271008,15,-22.35,16.1333,72.18,9.86
Camopi,19,GF,1659271009,69,3.1655,-52.3158,82.69,2.55
Kieta,12,PG,1659271009,83,-6.2167,155.6333,79.0,5.7
New Norfolk,100,AU,1659271010,72,-42.7826,147.0587,52.92,5.01
Hithadhoo,100,MV,1659271010,78,-0.6,73.0833,79.66,18.45
Gornopravdinsk,100,RU,1659271011,44,60.05,69.9,68.22,10.51
Kalmunai,100,LK,1659271011,83,7.4167,81.8167,80.38,11.61
Helong,100,CN,1659271012,98,42.5397,128.9972,71.71,1.86
Jalu,0,LY,1659271012,17,29.0331,21.5482,100.92,11.21
Puerto Ayora,99,EC,1659270999,94,-0.7393,-90.3518,69.55,7.0
Xining,28,CN,1659271013,67,36.6167,101.7667,64.8,2.8
Khatanga,100,RU,1659271014,67,71.9667,102.5,50.32,6.73
Port-Gentil,40,GA,1659271014,65,-0.7193,8.7815,82.36,18.41
Havøysund,100,NO,1659271014,80,70.9963,24.6622,53.83,4.83
Acajutla,98,SV,1659271015,74,13.5928,-89.8275,79.72,4.38
Serebryansk,100,KZ,1659271016,94,49.6925,83.2892,61.14,5.95
Vanimo,19,PG,1659271016,85,-2.6741,141.3028,79.09,5.14
Avera,0,US,1659271016,71,33.194,-82.5271,81.55,6.15
Cayenne,6,GF,1659270801,23,4.9333,-52.3333,86.09,2.3
Garissa,97,KE,1659271017,39,-0.4536,39.6401,88.0,24.05
Talnakh,20,RU,1659271018,56,69.4865,88.3972,51.21,20.67
Bredasdorp,4,ZA,1659271018,40,-34.5322,20.0403,59.22,7.72
Merauke,98,ID,1659271019,87,-8.4667,140.3333,75.76,13.89
Vozhega,36,RU,1659271019,47,60.4725,40.2213,69.89,4.18
Saskylakh,100,RU,1659271020,84,71.9167,114.0833,46.71,13.38
Trabzon Province,40,TR,1659271020,69,40.9167,39.8333,75.29,4.61
Pandan,100,PH,1659271021,84,14.0453,124.1694,80.85,6.13
Lusambo,100,CD,1659271021,31,-4.9667,23.45,91.35,4.65
Osmanabad,100,IN,1659271022,68,18.1667,76.05,82.99,3.71
Anloga,100,GH,1659271022,78,5.7947,0.8973,77.11,17.96
Yulara,0,AU,1659271023,33,-25.2406,130.9889,53.44,10.07
Ada,0,US,1659271023,33,43.4166,-116.1262,74.01,12.66
Luwuk,100,ID,1659271024,89,-0.9516,122.7875,76.75,2.59
Thinadhoo,100,MV,1659271024,89,0.5333,72.9333,78.3,27.0
Maragogi,31,BR,1659271025,75,-9.0122,-35.2225,79.11,12.17
Mogadishu,40,SO,1659270727,74,2.0371,45.3438,82.27,17.27
Airai,67,TL,1659271026,93,-8.9266,125.4092,58.57,2.71
Fort Nelson,100,CA,1659271026,77,58.8053,-122.7002,60.39,4.61
Whitehorse,75,CA,1659271027,72,60.7161,-135.0538,59.77,8.05
Sørland,100,NO,1659271027,83,67.667,12.6934,60.66,17.18
Birjand,20,IR,1659271028,13,32.8663,59.2211,93.67,9.22
Chýnov,47,CZ,1659271028,48,49.4068,14.8112,77.18,13.06
Grafton,0,US,1659271029,66,42.207,-71.6856,77.2,3.44
Tupsan,100,PH,1659271029,81,9.1992,124.7769,80.98,5.93
Saldanha,2,ZA,1659271029,54,-33.0117,17.9442,62.65,17.87
Cidreira,11,BR,1659271030,70,-30.1811,-50.2056,59.16,13.15
Morehead,100,US,1659271031,99,37.2711,-87.1764,70.0,0.0
Severo-Kuril'sk,91,RU,1659271031,92,50.6789,156.125,52.41,11.01
Ilulissat,20,GL,1659271031,58,69.2167,-51.1,53.62,8.05
Brae,100,GB,1659271032,67,60.3964,-1.353,54.82,11.92
Ushuaia,40,AR,1659270931,75,-54.8,-68.3,38.86,21.85
Çan,0,TR,1659271032,28,40.0333,27.0524,93.33,13.44
Barrow,68,US,1659271033,95,71.2906,-156.7887,35.49,6.35
Ponta do Sol,0,PT,1659271033,70,32.6667,-17.1,79.72,2.84
Port Keats,12,AU,1659271034,39,-14.25,129.55,72.48,5.32
Clyde River,100,CA,1659271034,100,70.4692,-68.5914,35.83,5.75
Coyhaique,0,CL,1659271035,80,-45.5752,-72.0662,31.95,6.91
Kaeo,5,NZ,1659271035,92,-35.1,173.7833,43.32,3.96
Brownsville,0,US,1659270766,92,25.9018,-97.4975,78.75,4.61
Aklavik,62,CA,1659271036,84,68.2191,-135.0107,44.69,2.84
Paramonga,83,PE,1659271036,85,-10.6667,-77.8333,61.23,7.02
Necochea,100,AR,1659271036,72,-38.5473,-58.7368,51.8,5.39
Merta,100,IN,1659271037,62,26.65,74.0333,86.04,12.8
Lavrentiya,36,RU,1659271037,89,65.5833,-171.0,41.85,1.83
Sapele,100,NG,1659271038,73,5.8941,5.6767,81.34,10.07
Matamoros,0,MX,1659271038,38,25.5333,-103.25,73.51,4.61
Terney,100,RU,1659271039,96,45.0503,136.6092,65.53,8.99
Salalah,75,OM,1659271039,78,17.0151,54.0924,80.69,13.8
Juradó,100,CO,1659271039,89,7.1053,-77.7641,78.67,3.02
Kintampo,100,GH,1659271040,68,8.0563,-1.7306,81.82,5.97
Luanda,20,AO,1659271040,78,-8.8368,13.2343,73.4,10.36
Qui Nhon,100,VN,1659271041,91,13.7667,109.2333,78.62,7.0
Leningradskiy,9,RU,1659271041,77,69.3833,178.4167,43.43,7.52
Ottawa,75,CA,1659270777,80,45.4112,-75.6981,69.12,9.22
Hamilton,100,US,1659270494,95,39.1834,-84.5333,67.23,6.91
Alakurtti,99,RU,1659271042,93,66.9672,30.3491,55.98,3.04
Sayyan,100,YE,1659271042,53,15.1718,44.3244,68.11,0.49
Torbay,0,CA,1659271043,80,47.6666,-52.7314,69.58,13.0
Scarborough,44,GB,1659271043,90,54.2797,-0.4044,62.92,1.99
Rio Grande,91,BR,1659270928,74,-32.035,-52.0986,51.91,5.3
Shenzhen,4,CN,1659271015,77,22.5455,114.0683,88.21,8.32
Alap,100,HU,1659271044,37,46.7991,18.6894,77.9,20.71
Codrington,100,AU,1659271045,93,-38.2667,141.9667,47.07,15.1
Teknāf,100,BD,1659271045,78,20.8624,92.3058,83.66,4.5
Hammerfest,75,NO,1659271046,67,70.6634,23.6821,61.25,3.44
Tuktoyaktuk,19,CA,1659271046,76,69.4541,-133.0374,43.12,7.16
Tiksi,87,RU,1659271047,76,71.6872,128.8694,49.26,10.2
Rock Sound,34,BS,1659271047,76,24.9,-76.2,82.8,17.18
Seoul,100,KR,1659270852,94,37.5683,126.9778,78.4,8.05
Jaisinghnagar,100,IN,1659271048,73,23.7,81.3833,83.03,5.1
Chilca,95,PE,1659271048,82,-12.5211,-76.7372,59.67,2.46
General Roca,22,AR,1659271049,61,-39.0333,-67.5833,47.25,0.65
Saint-Louis,67,SN,1659271049,47,16.3333,-15.0,83.84,12.33
Taku,0,CN,1659271049,77,39.0211,117.6469,80.56,8.32
Concepción,75,CL,1659270927,93,-36.827,-73.0498,46.2,6.91
Tevaitoa,23,PF,1659271050,69,-16.7833,-151.5,79.05,23.38
Eureka,100,US,1659270962,90,40.8021,-124.1637,59.67,1.32
Haines Junction,39,CA,1659271051,87,60.7522,-137.5108,51.75,2.3
Berlevåg,100,NO,1659271051,88,70.8578,29.0864,58.8,10.36
Takoradze,100,GH,1659271052,80,4.8845,-1.7554,75.52,11.23
Nikolskoye,100,RU,1659271052,47,59.7035,30.7861,70.88,5.12
Karacabey,0,TR,1659271053,39,40.2152,28.4038,86.38,16.87
Bonga,38,ET,1659271053,62,7.2833,36.2333,72.43,4.27
East London,20,ZA,1659271053,42,-33.0153,27.9116,65.34,18.41
Daru,72,PG,1659271054,93,-9.0763,143.2092,76.21,13.53
Esperance,100,AU,1659271054,61,-33.8667,121.9,56.91,10.74
Broken Hill,1,AU,1659271055,69,-31.95,141.4333,48.33,10.47
Hong Kong,3,HK,1659270840,80,22.2855,114.1577,88.32,7.0
Hasaki,100,JP,1659271055,82,35.7333,140.8333,84.29,7.76
Anadyr,0,RU,1659271056,93,64.75,177.4833,39.7,4.47
Tuatapere,14,NZ,1659271056,87,-46.1333,167.6833,39.63,4.68
Cockburn Town,40,TC,1659270800,74,21.4612,-71.1419,84.16,11.5
Nova Olímpia,5,BR,1659271057,29,-14.7972,-57.2881,82.96,3.04
Glenwood Springs,100,US,1659270774,71,39.5505,-107.3248,65.43,6.91
Klaksvík,42,FO,1659271057,75,62.2266,-6.589,52.48,18.54
Saint-Pierre,0,RE,1659271058,62,-21.3393,55.4781,76.68,10.36
Alekseyevsk,56,RU,1659271058,95,57.8406,108.3492,61.7,4.03
Ancud,100,CL,1659270860,88,-41.8697,-73.8203,41.23,4.25
Chui,99,UY,1659271059,68,-33.6971,-53.4616,52.81,2.39
Atbasar,100,KZ,1659271059,62,51.8,68.3333,70.18,7.47
Businga,92,CD,1659271060,63,3.3333,20.8833,79.29,3.15
Homer,100,US,1659270916,98,59.6425,-151.5483,56.77,5.99
Pajapan,77,MX,1659271060,83,18.25,-94.7,69.96,3.29
Ayagoz,100,KZ,1659271061,34,47.9714,80.4392,74.93,13.31
Bereda,0,ES,1659271061,66,43.2686,-7.5406,81.14,7.9
Bāglung,100,NP,1659271062,95,28.2719,83.5898,72.48,0.83
Stokmarknes,0,NO,1659271062,40,68.5646,14.9108,69.78,4.61
Maturin,87,VE,1659271063,89,9.75,-63.1767,77.99,7.65
Sistranda,95,NO,1659271063,84,63.7256,8.834,53.56,11.14
Norman Wells,20,CA,1659271064,76,65.282,-126.8329,53.64,9.22
Arkhara,87,RU,1659271064,71,49.4212,130.0842,76.59,9.8
Geraldton,100,AU,1659271065,49,-28.7667,114.6,61.29,2.95
Mukhen,0,RU,1659271065,95,48.1,136.1,70.2,3.96
Uvalde,0,US,1659271066,60,29.3669,-99.767,73.13,5.75
Olhão,0,PT,1659271066,65,37.0286,-7.8411,86.29,9.22
Namatanai,35,PG,1659271067,82,-3.6667,152.4333,79.34,10.71
Takapau,0,NZ,1659271067,96,-40.0333,176.35,35.73,3.56
Pāsighāt,98,IN,1659271067,97,28.0667,95.3333,76.33,2.08
Ocós,100,GT,1659271068,87,14.5094,-92.1933,75.38,5.93
Farafangana,0,MG,1659271068,76,-22.8167,47.8333,72.59,11.01
Kodinsk,13,RU,1659271069,81,58.6881,99.1844,67.42,1.86
Verkhnetulomskiy,41,RU,1659271069,80,68.6073,31.7962,66.33,8.23
Yerbogachën,83,RU,1659271070,73,61.2767,108.0108,68.43,3.49
Carauari,20,BR,1659271070,69,-4.8828,-66.8958,81.41,3.11
Viedma,56,AR,1659271071,63,-40.8135,-62.9967,47.39,4.59
Tambura,71,SS,1659271071,86,5.6,27.4667,76.42,6.53
Lüderitz,0,NA,1659271071,49,-26.6481,15.1594,63.48,21.61
Povenets,83,RU,1659271072,79,62.8487,34.8262,58.01,5.08
Mount Isa,0,AU,1659271072,32,-20.7333,139.5,66.52,8.68
Qasigiannguit,68,GL,1659271073,65,68.8193,-51.1922,53.85,1.36
Khani,0,GE,1659271073,51,41.9563,42.9566,74.77,5.93
Mahrīz,80,IR,1659271074,23,31.5917,54.4318,93.7,4.88
Planeta Rica,100,CO,1659271074,93,8.4147,-75.5883,77.11,4.36
Bhor,52,IN,1659271075,82,18.1667,73.85,77.5,7.85
Chimbote,98,PE,1659271075,87,-9.0853,-78.5783,61.29,3.91
Gimli,100,CA,1659271076,95,50.6336,-96.9907,64.36,12.41
Dunedin,32,NZ,1659271076,77,-45.8742,170.5036,43.81,5.99
Chokurdakh,81,RU,1659271077,67,70.6333,147.9167,59.43,5.46
Aranos,5,NA,1659271077,21,-24.1333,19.1167,68.65,12.95
Alofi,15,NU,1659271078,88,-19.0595,-169.9187,76.89,5.75
Provideniya,8,RU,1659271078,83,64.3833,-173.3,47.66,2.86
Nicoya,84,CR,1659271078,88,10.1483,-85.452,76.77,2.37
Sambava,0,MG,1659271079,71,-14.2667,50.1667,75.13,11.07
Seguin,0,US,1659271079,93,29.5688,-97.9647,80.38,5.75
Aleppo Governorate,0,SY,1659271080,17,36.25,37.5,101.17,16.08
San Quintín,12,MX,1659271080,84,30.4833,-115.95,67.53,4.23
Yar-Sale,10,RU,1659271080,57,66.8333,70.8333,58.98,10.8
Camaná,55,PE,1659271081,76,-16.6228,-72.7111,60.93,7.58
Mazatán,75,MX,1659271082,100,14.8667,-92.45,75.27,2.3
Kyaikkami,100,MM,1659271082,76,16.08,97.5675,82.29,3.47
Abu Samrah,0,SY,1659271083,13,35.3029,37.1841,100.85,11.74
Nesterov,100,RU,1659271083,97,54.6306,22.5714,57.58,14.23
Itaqui,0,BR,1659271084,73,-29.1253,-56.5531,56.14,5.93
Hualmay,72,PE,1659271084,83,-11.0964,-77.6139,60.69,7.25
Kruisfontein,35,ZA,1659271084,60,-34.0033,24.7314,56.23,17.05
Zheleznodorozhnyy,30,RU,1659270830,31,55.7503,38.0042,79.21,4.29
Aitape,15,PG,1659271085,83,-3.1374,142.3475,79.27,5.23
Lewistown,100,US,1659271086,69,40.5992,-77.5714,69.12,1.66
Makkah al Mukarramah,11,SA,1659270805,19,21.4267,39.8261,102.49,18.68
Kumul,47,CN,1659271086,23,42.8,93.45,89.56,3.33
Eyl,20,SO,1659271087,54,7.9803,49.8164,85.33,28.95
Bengkulu,82,ID,1659271088,85,-3.8004,102.2655,78.67,3.65
Stolin,100,BY,1659271088,67,51.8912,26.846,67.03,13.4
Kholodnyy,67,RU,1659271088,87,62.7167,147.95,51.8,6.73
Lagoa,0,PT,1659271089,73,39.05,-27.9833,72.61,7.78
Beringovskiy,100,RU,1659271089,74,63.05,179.3167,49.28,2.53
Gushikawa,75,JP,1659271089,91,26.3544,127.8686,80.6,12.66
Denpasar,40,ID,1659271090,88,-8.65,115.2167,78.46,9.22
Sakaiminato,75,JP,1659271091,70,35.55,133.2333,85.98,4.61
Shache,69,CN,1659271091,16,38.4167,77.2406,91.2,4.7
Noyabrsk,0,RU,1659271092,44,63.1994,75.4507,64.17,18.23
Port Blair,40,IN,1659270930,83,11.6667,92.75,82.44,10.36
São Gabriel da Cachoeira,0,BR,1659271092,94,-0.1303,-67.0892,76.8,2.3
Chingirlau,65,KZ,1659271093,37,51.095,54.0814,81.39,4.16
Severo-Yeniseyskiy,72,RU,1659271093,68,60.3725,93.0408,69.87,2.8
Bambous Virieux,40,MU,1659271094,68,-20.3428,57.7575,74.21,21.85
Katangli,93,RU,1659271095,92,51.7102,143.2326,50.79,10.29
Srandakan,100,ID,1659271095,85,-7.9386,110.2506,74.37,6.53
Gamba,99,GA,1659271096,69,-2.65,10.0,78.3,9.78
Satuk,0,TR,1659271096,42,41.2263,32.3836,78.58,7.7
Halifax,0,CA,1659270827,81,44.6453,-63.5724,72.68,6.91
Davidson,0,US,1659271097,84,36.1501,-86.7833,76.71,8.99
São José,3,BR,1659270943,51,-28.2333,-49.1667,59.43,2.17
Pyn U Lwin,99,MM,1659271097,95,22.0333,96.4667,68.31,1.99
Saint-Philippe,44,RE,1659271098,77,-21.3585,55.7679,76.59,14.92
Taoudenni,3,ML,1659271099,13,22.6783,-3.9836,112.15,11.07
Bulgan,2,MN,1659271099,61,48.8125,103.5347,64.11,2.89
Flin Flon,75,CA,1659271099,94,54.7682,-101.865,55.24,0.0
Touros,23,BR,1659271100,72,-5.1989,-35.4608,81.75,13.42
Krasnosel'kup,62,RU,1659271100,53,65.7,82.4667,58.6,19.48
Bubaque,8,GW,1659271101,79,11.2833,-15.8333,79.41,13.15
Yei,65,SS,1659271101,68,4.095,30.6779,78.03,4.7
Meulaboh,97,ID,1659271101,83,4.1363,96.1285,79.38,5.23
Fortuna,100,US,1659271102,90,40.5982,-124.1573,59.34,0.34
Paraúna,0,BR,1659271102,32,-16.9478,-50.4486,79.36,6.11
Aswān,27,EG,1659271103,8,24.0934,32.907,106.65,13.44
Morón,100,AR,1659271103,79,-34.6534,-58.6198,58.96,3.58
Metro,11,ID,1659271104,89,-5.1131,105.3067,76.37,5.39
Maumere,83,ID,1659271104,80,-8.6199,122.2111,76.93,6.04
Mozelos,0,PT,1659271105,18,41.8677,-8.3978,102.24,5.93
Whitecourt,75,CA,1659271105,100,54.1502,-115.6855,58.24,6.91
Emba,56,KZ,1659271106,36,48.8264,58.1442,79.92,7.94
Kulhudhuffushi,100,MV,1659271106,81,6.6221,73.07,79.74,20.74
Hobyo,8,SO,1659271106,64,5.3505,48.5268,80.83,31.18
Kamaishi,12,JP,1659271107,83,39.2667,141.8833,76.41,3.69
Zhangye,100,CN,1659271107,46,38.9342,100.4517,78.94,4.92
Honningsvåg,100,NO,1659271108,87,70.9821,25.9704,53.35,4.61
Jatibarang,0,ID,1659271108,80,-6.4747,108.3153,77.59,6.02
Moose Factory,100,CA,1659271109,94,51.2585,-80.6094,55.4,11.5
Esim,100,GH,1659271110,77,4.8699,-2.2405,76.21,11.07
Houma,0,US,1659270936,94,29.5958,-90.7195,79.0,0.0
Khandyga,48,RU,1659271111,82,62.6667,135.6,66.42,4.9
Coquimbo,100,CL,1659271111,76,-29.9533,-71.3436,55.13,3.44
Royal Palm Beach,75,US,1659271112,81,26.7084,-80.2306,86.0,11.5
São João da Barra,0,BR,1659271091,59,-21.6403,-41.0511,69.89,5.53
Sandy Point,98,AU,1659271112,85,-38.8167,146.1,49.75,16.42
Aljezur,4,PT,1659271113,48,37.3191,-8.8033,84.65,5.7
Presidente Médici,0,BR,1659271113,32,-11.1753,-61.9014,82.58,2.71
Impfondo,68,CG,1659271114,41,1.6381,18.0667,89.96,4.09
Beloha,30,MG,1659271114,50,-25.1667,45.05,78.82,11.07
Oskarshamn,1,SE,1659271115,49,57.2645,16.4484,74.98,11.48
Cherskiy,46,RU,1659271115,57,68.75,161.3,55.33,9.93
Aloleng,100,PH,1659271115,84,16.1307,119.7824,80.62,9.8
Nyandoma,10,RU,1659271116,60,61.669,40.1991,66.67,4.0
Mujiayingzi,0,CN,1659271117,67,42.1167,118.7833,75.99,6.15
Khasan,100,RU,1659271117,98,42.4308,130.6434,72.88,5.88
Kiunga,35,PG,1659271118,99,-6.1219,141.2906,73.69,3.62
Nowy Dwór Gdański,100,PL,1659271118,78,54.2131,19.1177,71.98,11.61
Cascais,0,PT,1659271119,48,38.6979,-9.4215,94.35,5.75
Isangel,100,VU,1659271119,94,-19.55,169.2667,69.91,1.14
Laas,89,IT,1659271120,47,46.6166,10.7002,80.69,4.12
Mountain Home,0,US,1659270863,39,43.133,-115.6912,63.88,8.05
Honiara,1,SB,1659271120,87,-9.4333,159.95,77.34,7.7
Kaduna,100,NG,1659271121,64,10.5222,7.4383,80.24,6.96
Bathsheba,40,BB,1659271121,90,13.2167,-59.5167,83.05,23.02
Eydhafushi,100,MV,1659271122,82,5.1033,73.0708,79.3,26.78
Radomir,80,BG,1659271123,36,42.5444,22.9578,83.05,9.51
Itoman,75,JP,1659271123,94,26.1247,127.6694,81.37,24.16
Santa Cruz de la Sierra,20,BO,1659271102,64,-17.8,-63.1667,69.85,16.11
Tasiilaq,37,GL,1659271124,58,65.6145,-37.6368,46.56,3.78
Beli Potok,71,RS,1659271124,37,44.7061,20.5197,84.15,14.97
Kingman,0,US,1659271125,71,35.1894,-114.053,78.28,9.22
Sitka,100,US,1659271126,94,57.0531,-135.33,57.09,9.22
São Miguel do Araguaia,7,BR,1659271126,21,-13.275,-50.1628,87.17,4.76
Pangody,0,RU,1659271127,44,65.85,74.4859,63.73,15.95
Mareeba,12,AU,1659271127,98,-17.0,145.4333,64.49,2.21
Carutapera,49,BR,1659271128,70,-1.195,-46.02,84.24,8.77
Omboué,83,GA,1659271128,67,-1.5746,9.2618,79.52,9.48
Garoowe,80,SO,1659271128,29,8.4054,48.4845,92.23,24.05
Porto Santo,40,PT,1659271129,64,33.072,-16.3415,75.58,13.8
Henties Bay,3,NA,1659271129,72,-22.116,14.2845,57.09,13.31
Passo de Camaragibe,14,BR,1659271130,84,-9.2368,-35.4901,81.95,7.52
Yantal',30,RU,1659271130,97,56.8471,105.2542,61.88,3.65
Linxia Chengguanzhen,71,CN,1659271131,66,35.6003,103.2064,71.83,10.18
Ambilobe,27,MG,1659271131,44,-13.2,49.05,84.11,1.77
The Pas,0,CA,1659271131,88,53.8251,-101.2541,59.02,3.44
Sabha,96,LY,1659271132,15,27.0377,14.4283,98.96,10.18
Itaituba,75,BR,1659271132,89,-4.2761,-55.9836,78.96,5.75
Lødingen,22,NO,1659271133,58,68.414,15.9951,71.74,10.74
Rocha,100,UY,1659271133,71,-34.4833,-54.3333,54.91,1.86
Alta Floresta,6,BR,1659271135,68,-9.8756,-56.0861,71.42,2.3
Dibulla,13,CO,1659271135,72,11.2725,-73.3091,82.06,11.39
Khovd,100,MN,1659271136,31,48.0056,91.6419,77.76,1.97
Mastic Beach,0,US,1659271017,69,40.7668,-72.8521,79.05,6.91
Nanortalik,94,GL,1659271136,77,60.1432,-45.2371,48.45,7.18
Kenai,0,US,1659270920,95,60.5544,-151.2583,56.08,4.61
Vanderhoof,44,CA,1659271137,75,54.0166,-124.0198,62.06,3.98
Kuna,0,US,1659271138,47,43.4918,-116.4201,76.78,12.66
Lumby,0,CA,1659271138,73,50.2498,-118.969,64.36,10.36
Erenhot,95,CN,1659271138,21,43.6475,111.9767,86.23,8.08
Hirado,100,JP,1659271139,76,33.3597,129.5531,87.39,19.17
Chapais,96,CA,1659271139,73,49.7834,-74.8492,64.18,9.8
Flinders,100,AU,1659271140,69,-34.5833,150.8552,58.37,8.01
Huilong,0,CN,1659271140,91,31.8111,121.655,80.08,7.36
Itupiranga,21,BR,1659271141,63,-5.1347,-49.3267,82.72,4.05
Mandalgovi,13,MN,1659271141,29,45.7625,106.2708,76.28,11.65
Erzin,0,TR,1659271142,58,36.9559,36.2,88.18,10.96
Vila Velha,0,BR,1659271142,60,-20.3297,-40.2925,73.35,9.22
Hanna,91,CA,1659271143,93,51.6334,-111.9018,61.86,6.15
Perth,70,AU,1659271007,82,-31.9333,115.8333,57.09,8.79
Mount Gambier,100,AU,1659271143,93,-37.8333,140.7667,46.24,9.33
Aksarka,10,RU,1659271144,44,66.5606,67.7975,67.15,9.98
Leuchars,100,GB,1659271144,67,56.3817,-2.8825,61.95,10.36
Florence,40,IT,1659270911,26,43.7667,11.25,98.69,5.75
Oskaloosa,75,US,1659271145,100,41.2964,-92.6444,67.98,3.44
Sémbé,100,CG,1659271145,64,1.6481,14.5806,81.5,2.1
Puerto Baquerizo Moreno,86,EC,1659271146,85,-0.9,-89.6,70.0,10.54
Lowestoft,77,GB,1659271146,81,52.4752,1.7516,73.94,15.28
Vestmanna,21,FO,1659271147,82,62.1564,-7.1664,50.18,20.92
Cabo San Lucas,0,MX,1659271147,65,22.8909,-109.9124,83.52,3.44
Vao,96,NC,1659271148,76,-22.6667,167.4833,68.83,23.69
Sur,73,OM,1659271148,50,22.5667,59.5289,94.86,9.31
Saint-Joseph,33,RE,1659271149,74,-21.3667,55.6167,75.58,12.59
Nizhnyaya Salda,75,RU,1659271149,76,58.0776,60.7202,67.42,7.78
Sliven,43,BG,1659271150,35,42.6858,26.3292,86.36,7.07
Saint-François,0,FR,1659270967,33,46.4154,3.9054,87.24,8.05
La Rioja,0,ES,1659271095,39,42.25,-2.5,76.78,7.67
Los Llanos de Aridane,20,ES,1659271151,83,28.6585,-17.9182,74.95,14.97
Yarmouth,0,US,1659271151,68,41.7057,-70.2286,78.15,5.75
Kilindoni,0,TZ,1659271152,74,-7.9139,39.6668,76.73,11.83
Iquitos,75,PE,1659271152,100,-3.7481,-73.2472,73.44,0.0
Itarema,47,BR,1659270927,64,-2.9248,-39.9167,85.08,14.65
Novobessergenevka,44,RU,1659271153,35,47.1847,38.8462,91.8,5.66
Jaicós,31,BR,1659271153,43,-7.3592,-41.1378,88.9,5.39
Guaraniaçu,0,BR,1659271154,38,-25.1008,-52.8781,60.84,3.29
Constantine,0,DZ,1659271155,28,36.365,6.6147,96.21,6.91
Kangaatsiaq,20,GL,1659271155,92,68.3065,-53.4641,42.12,6.78
Mbandaka,83,CD,1659271156,43,0.0487,18.2603,87.66,3.89
Suvorovskaya,2,RU,1659271156,29,44.1942,42.6539,93.49,11.68
Don Luan,100,VN,1659271157,92,11.5333,106.9167,77.72,1.72
Quesnel,100,CA,1659271157,88,52.9999,-122.5029,61.3,0.0
Neuquén,0,AR,1659271156,100,-38.9516,-68.0591,30.09,0.0
Mitú,94,CO,1659271158,90,1.1983,-70.1733,75.31,0.76
Kushiro,100,JP,1659271042,84,42.975,144.3747,67.48,13.56
Dingle,100,PH,1659271158,89,10.9995,122.6711,77.76,4.09
Medford,35,US,1659270997,73,42.3265,-122.8756,73.58,1.25
Storforshei,75,NO,1659271160,56,66.4043,14.5233,67.78,9.22
Caucayá,89,CO,1659271161,87,-0.1934,-74.7819,75.02,1.21
Latung,100,PH,1659271161,78,5.5,120.8833,82.8,18.21
Lompoc,0,US,1659271161,95,34.6391,-120.4579,65.01,0.0
Miraflores,59,MX,1659271162,92,19.2167,-98.8083,57.97,2.3
Saint Simons,0,US,1659271162,83,31.1352,-81.3901,80.65,9.22
Nabire,100,ID,1659271163,86,-3.3667,135.4833,78.1,2.91
Santa Cruz del Sur,40,CU,1659271163,82,20.7147,-77.9956,80.91,15.01
Quatre Cocos,52,MU,1659271164,71,-20.2078,57.7625,74.08,18.1
Mala Bilozerka,1,UA,1659271164,22,47.2474,34.9346,94.03,11.14
Olinda,40,BR,1659271164,74,-8.0089,-34.8553,80.33,11.5
Makassar,20,ID,1659271165,100,-5.14,119.4221,77.05,3.44
Port Hedland,27,AU,1659271165,60,-20.3167,118.5667,72.28,2.68
Ojinaga,0,MX,1659271166,41,29.5667,-104.4167,80.42,5.75
Sola,84,VU,1659271166,94,-13.8833,167.55,79.47,5.75
Kjøllefjord,100,NO,1659271167,94,70.9457,27.3465,55.22,4.61
Port Lincoln,7,AU,1659271167,74,-34.7333,135.8667,51.57,10.38
Hulyaypole,25,UA,1659271168,25,47.6653,36.2578,93.25,8.93
Tirumakūdal Narsipur,100,IN,1659271168,68,12.21,76.9064,83.64,3.33
Praia da Vitória,20,PT,1659271169,73,38.7333,-27.0667,79.75,7.92
Ust-Kuyga,100,RU,1659271169,69,70.0167,135.6,69.22,5.82
Bonthe,100,SL,1659271170,69,7.5264,-12.505,79.5,10.47
Jardim,0,BR,1659271170,37,-21.4803,-56.1381,74.53,4.97
Shimoda,18,JP,1659271170,88,34.6667,138.95,82.11,10.56
Amga,79,RU,1659271171,69,60.8953,131.9608,68.92,4.07
Rusnė,100,LT,1659271172,91,55.2964,21.3758,57.74,13.18
Manadhoo,100,MV,1659271172,83,5.7667,73.3833,79.29,20.42
Ayorou,25,NE,1659271172,25,14.7308,0.9174,101.28,7.36
Koson,0,UZ,1659271173,17,39.0375,65.585,95.32,20.27
Jämsä,72,FI,1659271173,55,61.8642,25.19,69.15,2.17
Atar,23,MR,1659271174,41,20.5169,-13.0499,94.19,6.85
Mangla,94,PK,1659271174,59,31.8931,72.3817,91.92,9.22
Magadan,100,RU,1659271174,90,59.5667,150.8,54.54,6.04
Karasburg,0,NA,1659271175,30,-28.0167,18.75,57.15,12.62
Marquette,34,US,1659271175,75,46.5333,-87.6335,67.77,8.34
Trat,100,TH,1659270925,87,12.5,102.5,89.13,3.49
Abu Kamal,0,SY,1659271176,9,34.4506,40.9171,109.02,10.8
Les Cayes,10,HT,1659271176,61,18.2,-73.75,85.17,5.59
Champerico,71,GT,1659271177,86,14.3,-91.9167,75.74,4.83
Kralendijk,40,BQ,1659271177,74,12.15,-68.2667,84.18,19.57
Oussouye,78,SN,1659271178,78,12.485,-16.5469,78.89,14.58
San Cristobal,66,VE,1659271178,76,7.7669,-72.225,73.58,4.76
Ambovombe,5,MG,1659271179,64,-25.1667,46.0833,74.26,10.0
Hirara,100,JP,1659271179,76,24.8,125.2833,84.47,22.73
Cartagena del Chairá,87,CO,1659271179,88,1.3349,-74.8429,74.8,2.24
Arrondissement de Saint-Denis,20,FR,1659271180,55,48.9167,2.3333,86.34,11.5
Okhotsk,100,RU,1659271180,93,59.3833,143.3,57.31,7.23
Narsaq,82,GL,1659271181,77,60.9167,-46.05,48.42,2.91
Dębica,100,PL,1659271181,92,50.0515,21.4114,68.5,14.56
Chernyshevskiy,17,RU,1659271182,79,63.0128,112.4714,64.11,4.03
Malbork,100,PL,1659271112,85,54.0359,19.0266,71.87,10.11
Bogo,100,PH,1659271182,82,11.0517,124.0055,80.82,7.87
Kirakira,19,SB,1659271183,84,-10.4544,161.9205,78.89,9.66
Awjilah,0,LY,1659271183,16,29.1081,21.2869,100.89,12.73
Gizo Government Station,3,SB,1659271184,75,-8.103,156.8419,82.4,13.04
Bilma,67,NE,1659271185,24,18.6853,12.9164,100.96,7.58
Sinnamary,35,GF,1659271185,78,5.3833,-52.95,81.9,6.26
Fereydūnkenār,25,IR,1659271186,64,36.6864,52.5225,82.78,8.7
Karpogory,78,RU,1659271186,54,64.0019,44.4451,72.36,6.24
Sisimiut,91,GL,1659271187,92,66.9395,-53.6735,43.23,12.57
Chumikan,93,RU,1659271187,98,54.7183,135.315,54.03,8.37
Pevek,3,RU,1659271187,63,69.7008,170.3133,47.26,7.47
Pervomayskiy,100,RU,1659271188,35,53.2485,40.2871,75.94,8.93
Waipawa,9,NZ,1659271188,85,-41.4122,175.5153,38.21,5.3
Manokwari,100,ID,1659271189,69,-0.8667,134.0833,79.65,4.21
Camacha,40,PT,1659271189,64,33.0833,-16.3333,72.82,13.8
Bārmer,100,IN,1659270893,61,25.75,71.3833,87.91,17.69
Kot Kapūra,100,IN,1659271190,84,30.5833,74.9,82.11,7.05
Maināguri,100,IN,1659271190,95,26.5667,88.8167,77.14,5.77
Vilyuysk,100,RU,1659271191,81,63.7553,121.6247,66.04,2.82
Buchanan,92,LR,1659271191,74,5.8808,-10.0467,77.65,8.34
La Palma,100,US,1659271191,87,33.8464,-118.0467,74.97,3.44
Koslan,85,RU,1659271192,33,63.4564,48.8989,81.19,5.03
Barentu,99,ER,1659271192,69,15.1139,37.5928,77.7,13.78
Mahon,20,ES,1659271193,35,39.8885,4.2658,90.16,9.22
Yuanping,0,CN,1659271194,69,38.7153,112.7575,74.82,1.43
Klyuchi,94,RU,1659271194,51,52.2667,79.1667,76.06,5.3
Montrose,22,US,1659271194,84,38.4166,-108.2673,50.45,2.62
Abhā,40,SA,1659270958,61,18.2164,42.5053,76.82,11.5
Marshall,85,US,1659270952,93,34.3834,-86.3333,76.08,6.38
Yamethin,97,MM,1659271195,74,20.4333,96.15,81.88,6.49
Banjar,75,ID,1659271196,90,-8.19,114.9675,75.15,1.74
Tamworth,90,GB,1659271196,71,52.634,-1.6959,74.82,5.99
Alihe,17,CN,1659271196,95,50.5667,123.7167,63.97,2.64
Kumluca,0,TR,1659271197,48,36.3703,30.2869,90.95,8.16
Anshun,0,CN,1659270981,90,26.25,105.9333,66.81,5.03
Province of Mantua,0,IT,1659271198,47,45.1667,10.7833,94.08,3.0
Opuwo,0,NA,1659271199,16,-18.0607,13.84,78.3,13.35
Krasnystaw,100,PL,1659271036,62,50.9846,23.1742,71.8,7.94
Rundu,9,NA,1659271200,11,-17.9333,19.7667,85.15,5.37
Puerto Cabezas,40,NI,1659271201,83,14.0351,-83.3888,82.36,6.91
Yaan,65,NG,1659271201,77,7.3833,8.5667,80.62,8.84
Yangi Marg`ilon,100,UZ,1659271201,19,40.4272,71.7189,92.12,23.02
Lac du Bonnet,100,CA,1659271202,95,50.2536,-96.0612,65.12,1.45
Nikel,66,RU,1659271202,69,69.4128,30.222,59.18,4.52
Palauig,100,PH,1659271203,81,15.435,119.9045,80.58,7.72
Bougouni,61,ML,1659271203,62,11.417,-7.479,85.28,4.54
Alyangula,100,AU,1659271204,83,-13.8483,136.4192,69.33,7.05
Ramos Arizpe,0,MX,1659271205,45,25.55,-100.9667,67.95,0.0
Jiaozuo,0,CN,1659271205,76,35.2397,113.2331,81.21,6.55
Obo,83,CF,1659271205,90,5.3998,26.4869,72.81,7.07
Palmer,20,US,1659271206,80,42.1584,-72.3287,76.5,0.0
Zhigansk,99,RU,1659271206,77,66.7697,123.3711,65.8,9.84
Huarmey,65,PE,1659271207,83,-10.0681,-78.1522,62.51,6.24
Kevsala,73,RU,1659271207,22,45.7983,42.6903,97.12,11.48
Saint-Augustin,20,CA,1659271208,65,51.226,-58.6502,70.86,13.96
Ucluelet,0,CA,1659271208,91,48.9329,-125.5528,56.08,2.77
Mizdah,0,LY,1659271209,12,31.4451,12.9801,99.21,11.41
Chūru,97,IN,1659271209,55,28.3,74.95,90.72,12.77
Chicama,74,PE,1659271209,86,-7.8447,-79.1469,59.54,2.13
Gouyave,75,GD,1659271210,88,12.1646,-61.7296,75.97,17.27
Soavinandriana,16,MG,1659271210,28,-19.1667,46.7333,72.46,4.47
Lumeje,0,AO,1659271211,12,-11.55,20.7833,87.91,2.8
Legnica,0,PL,1659271211,29,51.2101,16.1619,81.05,13.91
Ossora,38,RU,1659271211,86,59.2353,163.0719,49.8,4.29
Newton,0,US,1659271177,63,42.337,-71.2092,78.44,9.22
Vostok,100,RU,1659271212,93,46.4856,135.8833,65.66,3.58
Peniche,7,PT,1659271212,72,39.3558,-9.3811,96.08,8.3
Kamiiso,100,JP,1659271213,93,41.8167,140.65,74.41,4.72
Caravelas,82,BR,1659271214,89,-17.7125,-39.2481,72.59,9.69
Katsuura,77,JP,1659271214,87,35.1333,140.3,80.58,11.48
Pedernales,100,DO,1659271215,61,18.0384,-71.744,86.11,2.62
Zhovti Vody,5,UA,1659271215,20,48.3473,33.5003,88.25,11.7
Zhezkazgan,75,KZ,1659271216,32,47.8043,67.7144,82.38,11.18
Benguela,2,AO,1659271216,65,-12.5763,13.4055,73.33,10.6
Walla Walla,0,US,1659271217,37,46.0646,-118.343,84.04,4.61
Roebourne,22,AU,1659271217,59,-20.7833,117.1333,71.51,4.94
Elmadağ,0,TR,1659271217,18,39.9208,33.2308,89.73,4.52
Manta,100,EC,1659271218,88,-0.95,-80.7333,71.38,8.05
Salta,0,AR,1659271218,93,-24.7859,-65.4117,41.59,4.61
Araouane,26,ML,1659271219,28,18.9048,-3.5265,100.24,9.93
Pizarro,100,CO,1659271219,88,4.9533,-77.366,77.9,5.95
Bella Union,0,UY,1659271219,74,-30.2752,-57.6007,54.55,5.77
Bikin,7,RU,1659271220,94,46.8161,134.26,71.08,3.0
Poya,31,NC,1659271220,87,-21.35,165.15,65.14,8.86
Verkhnyaya Maksakovka,75,RU,1659271221,88,61.635,50.9674,66.22,6.71
Poum,99,NC,1659271221,74,-20.2333,164.0167,71.55,8.9
Finschhafen,93,PG,1659271222,80,-6.6024,147.8681,79.3,6.46
Shebunino,7,RU,1659271222,90,46.4339,141.8603,59.4,6.58
Orangeburg,0,US,1659271223,94,33.4918,-80.8557,78.94,4.0
Majene,100,ID,1659271223,88,-3.5403,118.9707,77.76,6.15
Kunmadaras,100,HU,1659271223,54,47.4333,20.8,72.86,13.87
Karratha,23,AU,1659271224,59,-20.7377,116.8463,72.05,5.84
Port Shepstone,99,ZA,1659271224,57,-30.7414,30.455,62.92,21.59
Walvis Bay,100,NA,1659271225,72,-22.9575,14.5053,58.15,9.22
